City_ID,City,Lat,Lng,Max Temp,Humidity,Cloudiness,Wind Speed,Country,Date
0,castelnovo ne'monti,44.4356,10.4033,9.02,87,11,0.62,IT,1699835628
1,bloemhof,-27.6469,25.607,18.58,32,2,3.22,ZA,1699835628
2,minas de marcona,-15.2119,-75.1103,14.62,91,90,6.45,PE,1699835628
3,bethel,41.3712,-73.414,2.93,72,0,1.54,US,1699835562
4,alofi,-19.0595,-169.9187,25.94,73,100,6.69,NU,1699835628
5,afaahiti,-17.75,-149.2833,28.93,80,58,4.61,PF,1699835628
6,shevchenko,48.5,35.0,8.73,69,100,5.78,UA,1699835629
7,port-aux-francais,-49.35,70.2167,4.47,78,100,4.04,TF,1699835629
8,ceuta,35.8903,-5.3075,18.02,78,34,1.94,ES,1699835629
9,jamestown,42.097,-79.2353,3.8,68,0,3.09,US,1699834992
10,puerto natales,-51.7236,-72.4875,5.52,87,100,1.74,CL,1699835565
11,labytnangi,66.6572,66.4183,-11.9,88,16,4.0,RU,1699835630
12,dudinka,69.4058,86.1778,-0.74,98,100,7.6,RU,1699835055
13,dryden,49.7833,-92.7503,1.16,100,100,4.63,CA,1699835630
14,floro,61.5996,5.0328,5.54,75,8,3.6,NO,1699835630
15,stanley,54.868,-1.6985,6.51,96,75,2.57,GB,1699835630
16,anadyr,64.75,177.4833,-0.72,80,75,9.0,RU,1699835630
17,rawson,-43.3002,-65.1023,10.11,53,99,4.55,AR,1699835631
18,grytviken,-54.2811,-36.5092,3.02,90,100,1.87,GS,1699835559
19,fale old settlement,-9.3852,-171.2468,29.12,70,86,1.87,TK,1699835631
20,lihue,21.9789,-159.3672,28.58,72,75,8.75,US,1699835580
21,banda aceh,5.5577,95.3222,27.39,78,30,3.77,ID,1699835402
22,edinburgh of the seven seas,-37.0676,-12.3116,14.15,83,8,9.89,SH,1699835562
23,st. john's,47.5649,-52.7093,-0.02,87,100,3.09,CA,1699835338
24,tidjikja,18.5564,-11.4271,24.63,13,8,4.4,MR,1699835632
25,kodiak,57.79,-152.4072,4.73,60,0,2.06,US,1699835632
26,yellowknife,62.456,-114.3525,-6.99,95,100,8.75,CA,1699835632
27,haiku-pauwela,20.9219,-156.3051,28.01,60,20,14.92,US,1699835567
28,tofol,5.3248,163.0078,28.88,74,100,4.63,FM,1699835632
29,boguchany,58.3814,97.4531,-9.52,94,100,1.34,RU,1699835632
30,longyearbyen,78.2186,15.6401,-4.09,80,75,7.72,SJ,1699835632
31,laojunmiao,39.8333,97.7333,-2.06,41,4,2.11,CN,1699835040
32,blackmans bay,-43.0167,147.3167,18.74,46,4,0.89,AU,1699835564
33,san fernando de apure,7.8878,-67.4724,27.85,69,100,1.89,VE,1699835633
34,vila velha,-20.3297,-40.2925,26.97,84,0,3.09,BR,1699835466
35,bredasdorp,-34.5322,20.0403,12.88,88,39,0.27,ZA,1699835633
36,uturoa,-16.7333,-151.4333,27.71,76,23,3.0,PF,1699835633
37,magadan,59.5667,150.8,-10.26,61,100,3.75,RU,1699835634
38,ribeira grande,38.5167,-28.7,18.21,89,100,1.34,PT,1699835634
39,singkil,-7.9855,111.4161,29.61,63,9,2.38,ID,1699835634
40,bardai,11.65,7.2333,22.05,25,48,3.7,NG,1699835634
41,toamasina,-18.1667,49.3833,22.09,84,57,1.23,MG,1699835634
42,weno,7.4515,151.8468,27.97,75,65,4.08,FM,1699835049
43,hengchun,22.0042,120.7439,23.85,73,31,14.96,TW,1699835365
44,laguna,38.421,-121.4238,23.36,35,0,1.54,US,1699834878
45,adamstown,-25.066,-130.1015,22.8,85,100,8.14,PN,1699835567
46,constantia,44.1833,28.65,7.61,50,100,2.59,RO,1699835635
47,happy valley-goose bay,53.3168,-60.3315,-2.83,68,75,4.63,CA,1699835412
48,waitangi,-43.9535,-176.5597,12.61,88,100,8.61,NZ,1699835565
49,fort st. john,56.2499,-120.8529,0.94,60,75,0.0,CA,1699835068
50,puerto baquerizo moreno,-0.9,-89.6,23.74,82,100,5.6,EC,1699835636
51,krivodanovka,55.0881,82.6551,3.05,100,100,4.02,RU,1699835636
52,makassar,-5.14,119.4221,29.03,61,20,2.06,ID,1699835636
53,talnakh,69.4865,88.3972,-1.55,96,100,4.26,RU,1699835636
54,tura,25.5198,90.2201,18.25,83,0,1.54,IN,1699835636
55,port saint john's,-31.6229,29.5448,16.3,71,0,3.5,ZA,1699835636
56,hamilton,39.1834,-84.5333,10.47,62,0,2.57,US,1699835240
57,ust-nera,64.5667,143.2,-23.48,99,100,1.16,RU,1699835637
58,fortuna,40.5982,-124.1573,18.29,67,0,4.63,US,1699835080
59,takoradi,4.8845,-1.7554,26.03,87,12,2.83,GH,1699835637
60,wichita falls,33.9137,-98.4934,17.08,68,0,3.09,US,1699835403
61,kavieng,-2.5744,150.7967,28.47,68,100,1.43,PG,1699835080
62,ivins,37.1686,-113.6794,18.96,19,11,1.42,US,1699835637
63,hithadhoo,-0.6,73.0833,27.59,76,91,3.36,MV,1699835637
64,targu secuiesc,46.0,26.1333,-0.47,94,14,0.67,RO,1699835638
65,ubari,26.5921,12.7805,18.37,30,0,2.63,LY,1699835083
66,hasaki,35.7333,140.8333,9.22,78,100,10.38,JP,1699835477
67,port mathurin,-19.6833,63.4167,25.24,78,0,2.09,MU,1699835638
68,wailua homesteads,22.0669,-159.378,28.24,78,75,8.75,US,1699835638
69,acarau,-2.8856,-40.12,26.32,74,0,6.28,BR,1699835638
70,salalah,17.0151,54.0924,25.05,57,0,3.6,OM,1699835084
71,nouadhibou,20.931,-17.0347,21.99,73,0,6.69,MR,1699835639
72,kokuy,52.2037,117.5529,-9.02,82,17,0.86,RU,1699835639
73,sungai penuh,-2.0833,101.3833,22.33,84,46,0.87,ID,1699835639
74,lensk,60.7253,114.9278,-13.49,95,100,1.96,RU,1699835078
75,invercargill,-46.4,168.35,11.68,94,100,3.58,NZ,1699835568
76,port alfred,-33.5906,26.891,13.43,88,59,0.45,ZA,1699835639
77,iqaluit,63.7506,-68.5145,-17.95,70,0,2.57,CA,1699835639
78,baotou,40.6522,109.8222,-2.16,29,100,2.09,CN,1699835640
79,thompson,55.7435,-97.8558,-1.91,100,100,0.0,CA,1699835640
80,sao joao da barra,-21.6403,-41.0511,26.05,89,61,3.76,BR,1699835045
81,lebu,-37.6167,-73.65,9.04,66,0,6.65,CL,1699835640
82,bilibino,68.0546,166.4372,-13.28,96,100,2.22,RU,1699835568
83,ushuaia,-54.8,-68.3,10.81,50,75,6.17,AR,1699835526
84,askoy,60.4092,5.226,4.3,75,0,0.0,NO,1699835641
85,papatowai,-46.5619,169.4708,12.66,96,100,2.17,NZ,1699835641
86,newman,37.3138,-121.0208,24.13,45,82,1.87,US,1699835508
87,betio village,1.358,172.9211,28.02,75,49,3.97,KI,1699835641
88,kayangel,8.0823,134.7173,29.4,72,100,7.49,PW,1699835043
89,palikir - national government center,6.9248,158.1611,29.41,79,100,2.06,FM,1699835641
90,tralee,52.2704,-9.7026,11.73,96,100,5.53,IE,1699835641
91,al ghayzah,16.2079,52.176,26.03,71,0,0.3,YE,1699835068
92,lagoa,39.05,-27.9833,17.88,78,100,6.07,PT,1699835642
93,isafjordur,66.0755,-23.124,1.73,83,100,1.86,IS,1699835642
94,holualoa,19.6228,-155.9522,26.42,76,40,4.12,US,1699835000
95,enewetak,11.3474,162.3373,26.8,87,100,7.42,MH,1699835642
96,tiksi,71.6872,128.8694,-16.75,90,99,6.5,RU,1699835642
97,suntar,62.1444,117.6319,-12.94,96,100,1.35,RU,1699835643
98,lorengau,-2.0226,147.2712,29.5,64,29,1.99,PG,1699835643
99,naze,28.3667,129.4833,18.51,65,82,8.94,JP,1699835643
100,imperatriz,-5.5264,-47.4917,29.35,44,80,1.23,BR,1699835643
101,san patricio,28.017,-97.5169,17.13,97,100,5.69,US,1699835644
102,iskateley,67.6803,53.1512,-11.66,94,56,2.24,RU,1699835644
103,ilulissat,69.2167,-51.1,-11.99,61,28,0.0,GL,1699835644
104,nkhotakota,-12.9274,34.2961,25.01,71,11,0.98,MW,1699835644
105,kavaratti,10.5669,72.642,27.77,75,83,1.78,IN,1699835051
106,prieska,-29.6641,22.7474,18.3,29,0,4.9,ZA,1699835645
107,howrah,22.5892,88.3103,21.0,88,22,2.06,IN,1699835645
108,tolanaro,-25.0319,46.9987,21.04,78,0,3.09,MG,1699835645
109,severo-yeniseyskiy,60.3725,93.0408,-4.12,98,100,0.89,RU,1699835645
110,petropavlovsk-kamchatsky,53.0452,158.6483,-1.67,74,75,12.52,RU,1699835645
111,florence,43.7667,11.25,11.22,89,40,1.54,IT,1699835427
112,darwin,-12.4611,130.8418,32.75,61,40,2.06,AU,1699835409
113,impfondo,1.6381,18.0667,22.09,97,100,0.99,CG,1699835646
114,cumana,10.4635,-64.1775,26.93,82,100,5.56,VE,1699835646
115,malvan,16.0667,73.4667,25.84,60,77,2.76,IN,1699835646
116,chegdomyn,51.1167,133.0167,-11.11,81,100,1.3,RU,1699835647
117,ivdel',60.6911,60.4206,1.77,81,100,1.79,RU,1699835647
118,balabac,7.9868,117.0645,29.24,71,18,4.4,PH,1699835647
119,port elizabeth,-33.918,25.5701,15.16,75,0,5.66,ZA,1699835647
120,akhmim,26.5622,31.745,24.4,47,0,2.55,EG,1699835647
121,zhosaly,45.4878,64.0781,3.76,82,6,1.9,KZ,1699835648
122,flying fish cove,-10.4217,105.6791,25.82,83,100,4.12,CX,1699835648
123,bela,25.9333,81.9833,18.68,62,3,1.13,IN,1699835648
124,al qabil,22.571,58.6947,21.3,49,97,1.55,OM,1699835649
125,margaret river,-33.95,115.0667,19.16,67,86,6.08,AU,1699835564
126,hawaiian paradise park,19.5933,-154.9731,26.73,80,100,1.54,US,1699835649
127,punta arenas,-53.15,-70.9167,10.06,57,75,10.29,CL,1699835649
128,olonkinbyen,70.9221,-8.7187,-3.33,67,100,2.37,SJ,1699835578
129,puerto deseado,-47.7503,-65.8938,7.91,61,0,7.54,AR,1699835650
130,turochak,52.2576,87.1224,-3.56,98,100,0.47,RU,1699835650
131,saint-joseph,-21.3667,55.6167,20.21,82,37,2.45,RE,1699835650
132,crane,31.3974,-102.3501,14.14,75,100,3.94,US,1699835650
133,al jawf,29.5,38.75,22.8,34,67,3.03,SA,1699835060
134,avarua,-21.2078,-159.775,24.03,60,75,3.09,CK,1699835651
135,badger,64.8,-147.5333,-7.07,79,75,2.57,US,1699835651
136,klyuchi,52.2667,79.1667,4.85,84,99,4.95,RU,1699835651
137,nemuro,43.3236,145.575,4.82,50,33,4.61,JP,1699835651
138,marsh harbour,26.5412,-77.0636,25.73,64,15,4.34,BS,1699835652
139,georgetown,5.4112,100.3354,27.96,89,20,1.54,MY,1699835445
140,mount pearl,47.5166,-52.7813,-1.14,85,100,3.13,CA,1699835652
141,east london,-33.0153,27.9116,14.81,68,1,4.22,ZA,1699835074
142,port lincoln,-34.7333,135.8667,16.71,65,100,4.07,AU,1699835652
143,nova vicosa,-17.8919,-39.3719,24.85,81,0,7.66,BR,1699835653
144,hotan,37.0997,79.9269,3.22,29,0,0.88,CN,1699835086
145,arraial do cabo,-22.9661,-42.0278,24.63,85,100,0.97,BR,1699835653
146,codrington,-38.2667,141.9667,16.26,51,5,5.59,AU,1699835653
147,mount gambier,-37.8333,140.7667,17.92,45,10,3.52,AU,1699835478
148,ancud,-41.8697,-73.8203,7.43,77,79,3.87,CL,1699835566
149,tsiombe,-25.3,45.4833,21.48,60,0,2.66,MG,1699835654
150,sao gabriel da cachoeira,-0.1303,-67.0892,25.27,87,42,0.59,BR,1699835631
151,antsiranana,-12.2787,49.2917,24.72,79,23,6.14,MG,1699835654
152,mount isa,-20.7333,139.5,33.87,26,5,4.12,AU,1699835456
153,port hedland,-20.3167,118.5667,27.03,57,3,4.63,AU,1699835655
154,atafu village,-8.5421,-172.5159,29.12,69,30,0.8,TK,1699835655
155,rongelap,11.1635,166.8941,27.94,82,100,8.86,MH,1699835655
156,burang,30.25,81.1667,-4.35,53,0,0.93,CN,1699835655
157,selfoss,63.9331,-20.9971,2.8,64,100,6.48,IS,1699835656
158,morehead city,34.7229,-76.726,12.21,89,100,8.23,US,1699835656
159,bel ombre,-4.6167,55.4167,26.91,83,20,1.54,SC,1699835656
160,vangaindrano,-23.35,47.6,19.08,83,0,2.68,MG,1699835656
161,college,64.8569,-147.8028,-7.03,79,75,2.57,US,1699835528
162,sitangkai,4.6628,119.3928,28.19,75,43,2.53,PH,1699835657
163,ha'il,27.5219,41.6907,18.01,52,0,1.03,SA,1699835657
164,rio grande,-32.035,-52.0986,17.06,90,100,3.23,BR,1699835657
165,bonito,-21.1211,-56.4819,33.92,32,53,4.36,BR,1699835656
166,hilo,19.7297,-155.09,27.93,75,100,1.54,US,1699835076
167,fisterra,42.9049,-9.2629,19.3,93,96,12.94,ES,1699835407
168,saipan,15.1355,145.701,31.39,70,20,7.72,MP,1699835658
169,darlowo,54.421,16.4107,6.4,87,89,3.59,PL,1699835658
170,newnham,-41.3833,147.1333,17.4,48,0,5.66,AU,1699835658
171,fort bragg,35.139,-79.006,13.23,76,0,0.0,US,1699835659
172,mata-utu,-13.2816,-176.1745,28.84,71,85,6.58,WF,1699835659
173,padang,-0.9492,100.3543,25.03,85,94,0.59,ID,1699835659
174,uyo,5.0333,7.9266,23.89,94,100,1.58,NG,1699835459
175,kidal,18.4411,1.4078,25.3,12,0,4.63,ML,1699835659
176,tucumcari,35.1717,-103.725,13.91,23,0,2.06,US,1699835659
177,kone,-21.0595,164.8658,27.94,41,13,4.49,NC,1699835660
178,areia branca,-4.9561,-37.1369,25.9,71,0,7.12,BR,1699835660
179,keflavik,64.0049,-22.5624,3.95,70,0,6.69,IS,1699835660
180,papao,-17.75,-149.55,29.82,76,39,2.36,PF,1699835660
181,broome,42.2506,-75.833,1.21,80,40,2.06,US,1699835661
182,puerto ayora,-0.7393,-90.3518,24.75,90,54,2.24,EC,1699835480
183,chonchi,-42.6128,-73.8092,8.56,84,96,1.4,CL,1699835661
184,qusmuryn,52.4503,64.6311,5.1,88,99,1.99,KZ,1699835661
185,harper,4.375,-7.7169,25.81,89,44,3.79,LR,1699835662
186,lusambo,-4.9667,23.45,19.37,99,100,0.74,CD,1699835662
187,wewak,-3.5534,143.6268,29.16,72,19,3.24,PG,1699835662
188,sinop,41.7711,34.8709,11.27,92,95,1.71,TR,1699835662
189,rialma,-15.315,-49.5844,25.82,45,11,1.22,BR,1699835662
190,dunedin,-45.8742,170.5036,20.6,63,100,1.79,NZ,1699835407
191,xiahu,26.6106,119.9483,14.9,71,99,8.42,CN,1699835663
192,kailua-kona,19.6406,-155.9956,28.49,73,40,4.12,US,1699835663
193,pierre,44.3683,-100.351,11.82,48,0,3.09,US,1699835585
194,veraval,20.9,70.3667,25.24,34,100,5.54,IN,1699835664
195,castanos,26.7833,-101.4167,13.02,97,100,2.81,MX,1699835664
196,utrik,11.2278,169.8474,28.02,81,100,8.58,MH,1699835664
197,ingeniero jacobacci,-41.3427,-69.5448,7.45,46,0,6.43,AR,1699835664
198,shingu,33.7333,135.9833,11.15,62,18,4.37,JP,1699835665
199,trincomalee,8.5711,81.2335,26.05,88,100,5.73,LK,1699835665
200,labrador city,52.9463,-66.9114,-7.05,86,100,6.17,CA,1699835665
201,tshabong,-26.05,22.45,21.92,16,0,3.91,BW,1699835665
202,aykhal,66.0,111.5,-13.06,95,100,4.24,RU,1699835665
203,upper grand lagoon,30.1633,-85.7408,18.08,83,100,3.13,US,1699835666
204,cherniakhiv,50.4565,28.6702,5.16,82,100,7.67,UA,1699835666
205,axim,4.8699,-2.2405,25.85,89,3,2.42,GH,1699835562
206,matehuala,23.65,-100.65,14.91,92,100,4.25,MX,1699835664
207,akrehamn,59.2667,5.1833,5.79,93,100,2.57,NO,1699835666
208,praia da vitoria,38.7333,-27.0667,17.64,94,75,2.65,PT,1699835666
209,vavozh,56.7751,51.931,1.87,86,100,7.72,RU,1699835667
210,marsa alam,25.0757,34.8918,25.71,82,100,2.15,EG,1699835667
211,jianshui,23.6363,102.8264,17.28,92,100,1.2,CN,1699835667
212,akureyri,65.6835,-18.0878,-2.04,80,20,1.54,IS,1699835667
213,manokwari,-0.8667,134.0833,28.8,75,86,2.47,ID,1699835668
214,santa ana,33.7456,-117.8678,29.73,34,75,5.14,US,1699835668
215,ta`u,-14.2336,-169.5144,27.88,79,17,4.44,AS,1699835668
216,arklow,52.7931,-6.1414,12.27,97,100,10.0,IE,1699835668
217,manacapuru,-3.2997,-60.6206,28.88,65,96,1.47,BR,1699835668
218,palmer,42.1584,-72.3287,0.64,75,0,1.2,US,1699835668
219,antigonish,45.6169,-61.9986,3.79,87,53,1.34,CA,1699835605
220,tarime,-1.35,34.3667,16.88,94,97,1.14,TZ,1699835669
221,thinadhoo,0.5333,72.9333,26.76,77,100,0.84,MV,1699835669
222,gaigeturi,33.4644,126.3183,9.03,57,75,5.66,KR,1699835669
223,loukhi,66.0764,33.0381,-4.35,97,85,2.37,RU,1699835669
224,kolwezi,-10.7148,25.4667,16.16,97,80,1.64,CD,1699835670
225,selkirk,50.1436,-96.8845,4.54,76,0,4.02,CA,1699835670
226,souillac,-20.5167,57.5167,20.21,88,20,2.57,MU,1699835670
227,cooma,-36.2333,149.1333,22.68,25,93,0.41,AU,1699835670
228,onega,63.9061,38.1404,-3.8,77,61,6.41,RU,1699835670
229,margate,51.3813,1.3862,10.17,98,100,2.24,GB,1699835636
230,novodvinsk,64.4165,40.8122,-3.45,93,39,4.25,RU,1699835671
231,west island,-12.1568,96.8225,26.99,83,40,4.63,CC,1699835671
232,namibe,-15.1961,12.1522,22.12,77,97,0.41,AO,1699835671
233,coquimbo,-29.9533,-71.3436,14.85,77,20,5.14,CL,1699835448
234,zeya,53.75,127.2667,-3.62,42,0,4.14,RU,1699835672
235,cole harbour,44.6724,-63.4751,3.71,80,67,4.63,CA,1699835672
236,freetown,8.484,-13.2299,26.46,87,17,2.05,SL,1699835672
237,tamandare,-8.7597,-35.1047,23.82,77,1,2.06,BR,1699835672
238,warrnambool,-38.3833,142.4833,19.64,57,5,4.8,AU,1699835674
239,el calafate,-50.3408,-72.2768,7.66,75,100,3.43,AR,1699835674
240,carnarvon,-24.8667,113.6333,22.63,70,30,4.07,AU,1699835674
241,kuala tungkal,-0.8167,103.4667,27.1,82,80,1.59,ID,1699835674
242,kerikeri,-35.2268,173.9474,20.1,51,0,3.93,NZ,1699835674
243,binka,21.0333,83.8,19.64,73,23,0.74,IN,1699835675
244,puerto cabezas,14.0351,-83.3888,26.14,92,99,4.56,NI,1699835675
245,polyarnyy,69.1989,33.4478,-9.61,96,97,4.42,RU,1699835675
246,torredembarra,41.1451,1.3986,19.27,82,0,1.54,ES,1699835675
247,gateway,26.5776,-81.7504,27.21,82,20,7.2,US,1699835516
248,remire-montjoly,4.9167,-52.2667,27.39,82,2,5.44,GF,1699835676
249,ibiruba,-28.6275,-53.0897,21.26,96,95,5.68,BR,1699835676
250,katsuren-haebaru,26.3369,127.8719,22.01,64,100,7.72,JP,1699835676
251,nar'yan-mar,67.6713,53.087,-11.61,94,52,2.24,RU,1699835676
252,ribas do rio pardo,-20.4431,-53.7592,29.31,34,9,3.67,BR,1699835676
253,qaqortoq,60.7167,-46.0333,-8.1,89,24,0.57,GL,1699835677
254,saint-philippe,-21.3585,55.7679,20.77,83,71,2.92,RE,1699835677
255,kirakira,-10.4544,161.9205,27.09,81,100,1.15,SB,1699835677
256,elliot lake,46.3834,-82.6331,4.6,82,100,5.8,CA,1699835677
257,soio,-6.1349,12.3689,25.63,87,100,2.47,AO,1699835678
258,egilsstadir,65.2653,-14.3948,-1.05,93,75,3.6,IS,1699835678
259,mana,5.6592,-53.7767,26.49,86,6,4.71,GF,1699835678
260,malanje,-9.5402,16.341,17.17,99,96,0.68,AO,1699835678
261,carutapera,-1.195,-46.02,26.23,78,0,3.77,BR,1699835678
262,albany,42.6001,-73.9662,-0.18,76,5,0.71,US,1699835389
263,isla mujeres,21.2311,-86.731,26.03,75,58,6.45,MX,1699835679
264,superior,46.7208,-92.1041,9.87,66,0,6.17,US,1699835679
265,nefta,33.8731,7.8777,19.14,38,1,2.16,TN,1699835679
266,san pedro de ycuamandiyu,-24.0917,-57.0764,35.42,29,77,3.33,PY,1699835679
267,hermanus,-34.4187,19.2345,14.21,86,3,3.52,ZA,1699835680
268,olyokminsk,60.3736,120.4264,-11.61,93,100,1.44,RU,1699835680
269,jining,35.405,116.5814,3.32,29,100,0.52,CN,1699835680
270,yuzhno-kurilsk,44.0306,145.8556,2.43,80,53,2.45,RU,1699835680
271,bargaal,11.2864,51.0773,26.98,77,58,5.71,SO,1699835680
272,nova xavantina,-14.6667,-52.35,29.46,37,85,1.95,BR,1699835680
273,guapiles,10.2159,-83.7866,27.07,97,100,1.3,CR,1699835681
274,kapa'a,22.0752,-159.319,28.99,78,75,8.75,US,1699835681
275,rockport,28.0206,-97.0544,17.22,91,100,5.66,US,1699835681
276,al qusiyah,27.4402,30.8184,23.34,56,3,3.59,EG,1699835681
277,chibuto,-24.6867,33.5306,21.87,66,100,5.01,MZ,1699835681
278,sitka,57.0531,-135.33,7.94,61,0,0.0,US,1699835564
279,neryungri,56.6709,124.6491,-12.5,90,95,3.37,RU,1699835682
280,mouila,-1.8685,11.0559,23.52,99,98,0.38,GA,1699835682
281,chui,-33.6971,-53.4616,15.35,90,98,2.89,UY,1699835682
282,rabaul,-4.1967,152.1721,28.47,68,100,3.36,PG,1699835682
283,buckeye,33.3703,-112.5838,27.45,20,0,2.57,US,1699835396
284,toyooka,35.5333,134.8333,7.03,87,75,3.09,JP,1699835683
285,fortaleza,-3.7227,-38.5247,27.82,79,20,5.66,BR,1699835627
286,khamharia,20.9833,82.2667,18.3,66,95,0.61,IN,1699835683
287,sandnessjoen,66.0217,12.6316,-6.71,68,17,5.6,NO,1699835683
288,kantang,7.4054,99.5156,25.05,100,40,1.03,TH,1699835683
289,vadso,70.0744,29.7487,-4.91,93,100,6.17,NO,1699835684
290,al badari,26.9926,31.4155,24.24,48,0,2.79,EG,1699835684
291,yanchep,-31.55,115.6833,22.19,67,100,4.71,AU,1699835684
292,oyem,1.5995,11.5793,20.38,99,100,0.58,GA,1699835684
293,la'ie,21.6477,-157.9253,27.98,73,19,4.47,US,1699835684
294,aasiaat,68.7098,-52.8699,-14.47,84,17,1.23,GL,1699835563
295,novyy urengoy,66.0833,76.6333,-9.52,90,11,6.4,RU,1699835685
296,puerto santa,-8.9906,-78.6456,19.37,85,99,4.55,PE,1699835685
297,zhigulevsk,53.3997,49.4953,3.32,80,100,9.06,RU,1699835685
298,mazagao,-0.115,-51.2894,30.03,69,5,2.93,BR,1699835685
299,sogndal,61.2283,7.1003,-0.79,93,75,0.0,NO,1699835686
300,inirida,3.8653,-67.9239,24.99,92,100,1.35,CO,1699835686
301,nabire,-3.3667,135.4833,30.35,61,100,1.78,ID,1699835686
302,ginir,7.1333,40.7,15.02,83,97,1.82,ET,1699835686
303,ulsteinvik,62.3432,5.8487,2.64,76,0,0.89,NO,1699835686
304,whitehorse,60.7161,-135.0538,-2.57,80,75,3.09,CA,1699835686
305,udachny,66.4167,112.4,-13.08,92,100,3.31,RU,1699835687
306,wajir,1.7471,40.0573,25.32,81,97,3.44,KE,1699835687
307,vaison-la-romaine,44.239,5.075,9.9,100,100,0.0,FR,1699835687
308,vilyuchinsk,52.9306,158.4028,-0.85,66,45,2.9,RU,1699835687
309,daru,-9.0763,143.2092,26.93,68,80,3.44,PG,1699835687
310,sinabang,2.4803,96.3801,26.94,82,100,1.8,ID,1699835688
311,vorkuta,67.5,64.0,-11.81,97,73,3.17,RU,1699835688
312,ifrane,33.3333,-5.25,12.51,43,100,1.3,MA,1699835688
313,ariquemes,-9.9133,-63.0408,23.78,94,83,0.44,BR,1699835688
314,linhares,-19.3911,-40.0722,24.34,80,39,2.19,BR,1699835688
315,tara,56.8944,74.371,0.63,99,100,1.84,RU,1699835688
316,geraldton,-28.7667,114.6,23.23,64,0,2.57,AU,1699835459
317,mahina,-17.5065,-149.489,29.87,70,75,4.63,PF,1699835689
318,koscierzyna,54.1223,17.9812,7.35,90,100,2.28,PL,1699835689
319,inhambane,-23.865,35.3833,23.48,83,96,3.21,MZ,1699835689
320,saint-pierre,-21.3393,55.4781,20.82,60,0,4.12,RE,1699835689
321,murun-kuren,49.6342,100.1625,-9.83,51,1,1.49,MN,1699835689
322,ed damer,17.5928,33.9592,28.94,39,69,2.03,SD,1699835689
323,manismata,-2.4667,111.0333,23.58,97,100,0.75,ID,1699835689
324,kapuskasing,49.4169,-82.4331,2.0,87,100,6.17,CA,1699835690
325,tambopata,-12.7333,-69.1833,28.43,60,95,1.1,PE,1699835690
326,cruzeiro do sul,-29.5128,-51.9853,22.5,94,100,0.47,BR,1699835690
327,luwuk,-0.9516,122.7875,30.4,65,19,2.42,ID,1699835690
328,red wing,44.5625,-92.5338,11.08,50,0,1.54,US,1699835690
329,forster,-32.1667,152.5167,23.54,70,65,5.17,AU,1699835691
330,arteche,12.2645,125.4048,28.52,83,100,3.79,PH,1699835691
331,charters towers,-20.1,146.2667,30.35,31,0,6.07,AU,1699835691
332,rupert,42.6191,-113.6772,11.97,35,0,0.0,US,1699835691
333,pantai remis,4.4557,100.6288,28.01,82,84,1.02,MY,1699835691
334,moses lake,47.1301,-119.2781,9.38,76,0,5.14,US,1699835417
335,chichicastenango,14.9333,-91.1167,17.63,96,62,1.47,GT,1699835692
336,pangody,65.85,74.4859,-10.74,88,12,6.33,RU,1699835692
337,san antonio de pale,-1.4014,5.6325,26.22,83,27,5.83,GQ,1699835692
338,znojmo,48.8555,16.0488,2.26,75,100,1.17,CZ,1699835692
339,gadzhiyevo,69.2551,33.3362,-9.98,97,99,4.31,RU,1699835692
340,cabo san lucas,22.8909,-109.9124,28.17,65,40,5.14,MX,1699835692
341,sanctuary point,-35.1114,150.629,18.44,55,99,2.75,AU,1699835693
342,mohr,54.3528,9.7167,7.05,96,18,3.09,DE,1699835693
343,antofagasta,-23.65,-70.4,17.6,77,42,3.88,CL,1699835534
344,shimoda,34.6667,138.95,12.2,74,86,4.56,JP,1699835693
345,vila franca do campo,37.7167,-25.4333,20.23,92,92,6.94,PT,1699835693
346,briancon,44.9,6.65,6.19,99,100,2.53,FR,1699835693
347,tabriz,38.08,46.2919,8.7,49,0,3.09,IR,1699835694
348,al kharijah,25.4514,30.5464,24.13,51,100,3.99,EG,1699835694
349,korla,41.7597,86.1469,3.14,70,86,2.01,CN,1699835694
350,vorgashor,67.5833,63.95,-11.93,98,78,3.41,RU,1699835694
351,iquique,-20.2208,-70.1431,19.02,80,55,0.23,CL,1699835385
352,ryotsu-minato,38.0833,138.4333,8.37,65,100,7.65,JP,1699835694
353,alice springs,-23.7,133.8833,30.75,35,85,4.12,AU,1699835417
354,rantoul,40.3084,-88.1559,10.55,56,0,3.09,US,1699835695
355,totness,5.8833,-56.3167,27.2,83,0,5.88,SR,1699835695
356,ad dilam,23.9915,47.1627,22.23,52,97,2.17,SA,1699835695
357,aswan,24.0934,32.907,26.66,59,95,1.87,EG,1699835695
358,basco,20.4487,121.9702,26.36,78,87,13.78,PH,1699835695
359,guerrero negro,27.9769,-114.0611,20.59,56,0,6.17,MX,1699835696
360,solwezi,-12.1688,26.3894,17.09,95,100,1.3,ZM,1699835697
361,beaufort west,-32.3567,22.583,13.53,61,0,4.18,ZA,1699835697
362,yen vinh,18.6667,105.6667,24.93,87,81,1.24,VN,1699835697
363,ciudad lazaro cardenas,17.9583,-102.2,26.95,81,69,2.16,MX,1699835697
364,cabedelo,-6.9811,-34.8339,25.37,77,3,3.87,BR,1699835697
365,howard springs,-12.497,131.047,33.23,59,25,0.56,AU,1699835697
366,puerto quijarro,-17.7833,-57.7667,31.91,43,59,2.66,BO,1699835698
367,mozarlandia,-14.7447,-50.5706,28.65,38,15,2.61,BR,1699835698
368,yung shue wan,22.2333,114.1167,21.46,71,100,0.89,HK,1699835698
369,al qubbah,32.7616,22.2424,14.91,85,0,3.08,LY,1699835698
370,yangshuo,24.7808,110.4897,9.27,84,100,2.12,CN,1699835698
371,san fernando,15.0286,120.6898,28.85,68,94,2.83,PH,1699835698
372,barcelos,41.5388,-8.6151,18.08,96,100,4.7,PT,1699835699
373,dangriga,16.9692,-88.2321,26.26,86,88,3.99,BZ,1699835699
374,miracema do tocantins,-9.5618,-48.3967,27.48,47,0,1.13,BR,1699835699
375,vilyuysk,63.7553,121.6247,-23.92,100,56,1.7,RU,1699835699
376,ryazhsk,53.7038,40.1109,5.79,94,100,10.28,RU,1699835699
377,sisimiut,66.9395,-53.6735,-9.32,87,88,3.17,GL,1699835477
378,la gi,10.6667,107.7833,26.99,79,100,3.29,VN,1699835700
379,mossel bay,-34.1831,22.146,11.96,78,0,1.81,ZA,1699835700
380,chippewa falls,44.9369,-91.3929,12.1,59,0,3.09,US,1699835700
381,mermoz boabab,14.7065,-17.4758,25.88,89,0,2.06,SN,1699835700
382,tazovsky,67.4667,78.7,-11.21,95,51,5.61,RU,1699835700
383,kotabumi,-4.8333,104.9,28.39,72,100,1.43,ID,1699835701
384,berdigestyakh,62.0989,126.6992,-16.53,95,100,3.93,RU,1699835701
385,ambodifotatra,-16.9833,49.85,24.63,72,33,1.16,MG,1699835701
386,el charco,2.4769,-78.1105,25.32,92,99,1.58,CO,1699835701
387,smithers,54.7804,-127.1743,-0.82,100,100,1.54,CA,1699835702
388,villa yapacani,-17.4,-63.8333,35.54,32,100,3.28,BO,1699835702
389,forshaga,59.5254,13.4813,-1.71,100,75,2.06,SE,1699835702
390,hlukhiv,51.6782,33.9162,5.61,92,100,8.12,UA,1699835703
391,lazaro cardenas,17.9583,-102.2,26.95,81,69,2.16,MX,1699835697
392,uliastay,47.7417,96.8444,-12.17,64,100,2.59,MN,1699835703
393,porto novo,6.4965,2.6036,27.9,86,53,2.02,BJ,1699835704
394,redencao,-4.2258,-38.7306,23.08,90,0,1.3,BR,1699835704
395,brookings,44.3114,-96.7984,9.54,45,0,1.54,US,1699835596
396,peace river,56.2501,-117.286,1.17,74,20,2.06,CA,1699835450
397,callao,-12.0667,-77.15,22.07,77,75,6.69,PE,1699835704
398,utete,-7.986,38.758,23.04,97,83,0.56,TZ,1699835705
399,dali,25.7,100.1833,13.11,75,0,0.63,CN,1699835705
400,vila do maio,15.1333,-23.2167,25.44,68,90,4.92,CV,1699835705
401,sorab,14.3833,75.1,18.82,85,57,2.68,IN,1699835706
402,la passe,45.5549,-0.8967,15.13,86,99,4.68,FR,1699835706
403,kill devil hills,36.0307,-75.676,13.32,69,100,8.75,US,1699835524
404,trinity beach,-16.7888,145.6968,31.67,58,40,5.14,AU,1699835706
405,pingzhuang,42.0372,119.2889,-5.79,64,2,1.13,CN,1699835707
406,cockburn town,21.4612,-71.1419,28.55,76,2,8.88,TC,1699835707
407,massawa,15.6097,39.45,28.91,67,52,1.15,ER,1699835707
408,fada,9.5667,8.3,21.48,50,14,1.28,NG,1699835707
409,igarka,67.4667,86.5833,-1.84,97,100,5.18,RU,1699835707
410,summerside,46.3959,-63.7876,2.05,80,94,2.06,CA,1699835708
411,nagqu,31.5,92.0,-12.28,44,0,1.51,CN,1699835708
412,chinde,26.8418,88.0763,12.45,60,0,2.47,NP,1699835708
413,alvaraes,-3.2208,-64.8042,27.93,79,11,1.06,BR,1699835708
414,kyzyl-suu,42.3414,78.0056,0.74,75,99,3.09,KG,1699835708
415,clute,29.0247,-95.3988,17.81,94,100,4.12,US,1699835709
416,ottawa,45.4112,-75.6981,-1.25,74,0,1.03,CA,1699835437
417,kunnamkulam,10.65,76.0833,22.84,82,100,3.06,IN,1699835709
418,parabel',58.6978,81.4825,1.06,98,79,3.58,RU,1699835606
419,bethanie,-26.4833,17.15,19.18,17,0,1.06,NA,1699835710
420,island harbour,50.724,-1.2758,13.29,93,100,2.24,GB,1699835710
421,farasan,16.7022,42.1183,29.28,73,91,4.65,SA,1699835710
422,rampur,28.8167,79.0333,15.62,60,0,1.37,IN,1699835710
423,hammerfest,70.6634,23.6821,-6.75,68,12,0.0,NO,1699835711
424,figuig (centre),32.1089,-1.2286,16.96,30,57,0.81,MA,1699835711
425,chimoio,-19.1164,33.4833,18.55,81,10,1.0,MZ,1699835711
426,bikenibeu village,1.3673,173.1241,27.98,89,75,1.54,KI,1699835711
427,belel,7.05,14.4333,17.08,90,100,1.44,CM,1699835711
428,kuala belait,4.5833,114.1833,28.09,79,73,1.48,BN,1699835712
429,okhotsk,59.3833,143.3,-15.4,77,0,9.79,RU,1699835712
430,mount darwin,-16.7725,31.5838,22.76,52,98,1.66,ZW,1699835712
431,campo gallo,-26.5833,-62.85,20.59,93,100,4.73,AR,1699835712
432,mendota,36.7536,-120.3816,25.15,21,92,2.84,US,1699835713
433,zapata,26.9073,-99.2714,16.06,100,100,1.54,US,1699835713
434,ixtapa,20.7,-105.2,29.57,74,75,3.09,MX,1699835713
435,marlborough,-41.6667,173.5,20.89,42,100,5.42,NZ,1699835714
436,mar del plata,-38.0023,-57.5575,11.72,67,0,1.54,AR,1699835714
437,zavoronezhskoye,52.8801,40.5526,7.43,81,100,11.55,RU,1699835714
438,embi,48.8264,58.1442,2.71,88,15,3.29,KZ,1699835714
439,pilar,-9.5972,-35.9567,22.96,85,1,1.74,BR,1699835715
440,brush,40.2589,-103.6238,12.89,27,0,3.6,US,1699835715
441,santa rosa de lima,13.6247,-87.8936,26.28,80,100,1.94,SV,1699835715
442,bani walid,31.7566,13.9942,15.37,78,0,1.44,LY,1699835715
443,santa elena de uairen,4.6167,-61.1333,21.46,82,71,1.75,VE,1699835716
444,lompoc,34.6391,-120.4579,25.56,54,0,2.57,US,1699835518
445,jayapura,-2.5333,140.7,32.66,75,80,2.88,ID,1699835716
446,beloyarskiy,63.7119,66.6722,-11.11,94,6,2.24,RU,1699835716
447,osmancik,40.9782,34.8047,13.6,86,61,0.59,TR,1699835717
448,gandi,12.9636,5.7434,24.04,18,0,4.42,NG,1699835717
449,kalevala,65.2,31.1667,-4.95,93,100,3.58,RU,1699835717
450,port augusta,-32.5,137.7667,27.06,20,100,3.17,AU,1699835717
451,el arahal,37.2627,-5.5453,17.11,89,0,0.0,ES,1699835718
452,yarmouth,41.7057,-70.2286,5.54,70,100,4.92,US,1699835601
453,flin flon,54.7682,-101.865,0.91,93,75,3.09,CA,1699835535
454,bintulu,3.1667,113.0333,27.23,89,40,1.03,MY,1699835585
455,rosso,16.4986,-15.8153,27.21,15,97,4.28,SN,1699835718
456,zaragoza,41.6561,-0.8773,18.25,68,0,4.63,ES,1699835719
457,loiza,18.4313,-65.8802,28.41,84,40,4.12,PR,1699835719
458,waat,51.1454,6.4958,7.38,94,75,1.54,DE,1699835719
459,kitimat,54.0524,-128.6534,4.39,79,63,1.79,CA,1699835719
460,los alamos,35.8881,-106.307,12.31,21,0,3.09,US,1699835593
461,okha,53.5739,142.9478,-3.97,89,100,6.57,RU,1699835720
462,amga,60.8953,131.9608,-14.67,93,100,3.29,RU,1699835720
463,volchikha,52.0333,80.3833,3.32,83,100,6.26,RU,1699835720
464,attapeu,14.8,106.8333,26.65,71,8,1.62,LA,1699835720
465,eyl,7.9803,49.8164,27.04,76,92,6.55,SO,1699835721
466,simplicio mendes,-7.8539,-41.9103,27.08,29,0,2.34,BR,1699835721
467,ballina,-28.8667,153.5667,25.99,77,80,4.5,AU,1699835721
468,changli,39.7042,119.1506,0.29,34,0,3.22,CN,1699835721
469,las flores,34.0372,-118.6359,27.58,47,0,3.09,US,1699835722
470,goba,7.0167,39.9833,10.95,93,99,0.59,ET,1699835722
471,ketchikan,55.3422,-131.6461,7.99,57,0,4.63,US,1699835722
472,boende,-0.2167,20.8667,20.33,99,100,0.7,CD,1699835722
473,port-vila,-17.7338,168.3219,25.78,69,100,8.23,VU,1699835722
474,pyu,18.4833,96.4333,24.28,90,100,0.77,MM,1699835723
475,siluko,6.5386,5.1609,24.3,98,98,1.0,NG,1699835723
476,salida,37.7058,-121.0849,21.95,36,0,2.57,US,1699835470
477,la ronge,55.1001,-105.2842,1.14,75,20,4.12,CA,1699835723
478,akcaabat,41.0212,39.5715,16.93,72,40,2.06,TR,1699835723
479,zag,46.9441,99.165,-15.83,75,1,1.35,MN,1699835724
480,bodo,67.28,14.405,-1.79,60,0,9.77,NO,1699835724
481,tianchang,37.9981,114.0156,3.64,33,100,0.38,CN,1699835724
482,barakani,-12.1356,44.4317,26.97,81,17,5.35,KM,1699835724
483,kasongo-lunda,-6.4667,16.8167,20.13,99,100,0.92,CD,1699835724
484,tual,-5.6667,132.75,27.87,78,31,4.77,ID,1699835724
485,masterton,-40.9597,175.6575,16.6,58,12,6.91,NZ,1699835561
486,rikaze,29.25,88.8833,-2.36,18,0,1.24,CN,1699835725
487,yuanping,38.7153,112.7575,-1.63,32,100,0.55,CN,1699835725
488,bereznik,62.8551,42.7072,-1.79,84,100,5.41,RU,1699835726
489,thunder bay,48.4001,-89.3168,4.99,87,75,2.57,CA,1699834993
490,grand falls-windsor,48.9332,-55.6649,-5.69,92,7,2.04,CA,1699835726
491,carinhanha,-14.3047,-43.765,27.61,32,0,0.29,BR,1699835726
492,zambezi,-13.5432,23.1047,19.9,80,100,1.53,ZM,1699835726
493,ironwood,46.4547,-90.171,7.45,61,0,4.63,US,1699835726
494,susuman,62.7833,148.1667,-29.27,97,89,0.38,RU,1699835727
495,bandar-e lengeh,26.5579,54.8807,23.06,46,20,3.09,IR,1699835727
496,obo,5.3998,26.4869,20.35,97,25,1.57,CF,1699835727
497,afua,-0.1567,-50.3867,26.04,77,1,3.84,BR,1699835727
498,shanklin,50.6261,-1.1785,12.99,93,100,0.89,GB,1699835727
499,aldinga beach,-35.2793,138.4604,21.81,49,66,1.91,AU,1699835728
500,quellon,-43.1167,-73.6167,7.66,79,100,3.94,CL,1699835728
501,shenjiamen,29.9576,122.298,10.94,70,100,10.13,CN,1699835728
502,jumla,29.2747,82.1838,5.71,52,0,2.17,NP,1699835728
503,fort payne,34.4442,-85.7197,13.95,74,40,0.0,US,1699835728
504,dapa,9.7594,126.0531,28.77,74,5,2.14,PH,1699835729
505,turpan,42.9333,89.1667,4.42,34,0,0.56,CN,1699835729
506,kirando,-7.4167,30.6,23.12,83,100,3.31,TZ,1699835729
507,malango,-2.9627,119.9001,26.53,62,97,0.79,ID,1699835729
508,kurchatov,51.6601,35.6521,7.79,94,100,8.28,RU,1699835729
509,powell,40.1578,-83.0752,6.93,66,0,0.0,US,1699835729
510,nova sintra,14.8667,-24.7167,23.73,68,66,3.06,CV,1699835730
511,riobamba,-1.6667,-78.6333,14.34,87,97,1.95,EC,1699835730
512,namdrik,5.5994,168.1028,28.53,81,100,6.1,MH,1699835730
513,sunland park,31.7965,-106.58,18.25,59,0,4.02,US,1699835731
514,guayaramerin,-10.8368,-65.3614,26.0,78,21,1.21,BO,1699835731
515,klaksvik,62.2266,-6.589,6.51,76,100,10.9,FO,1699835731
516,hermantown,46.8069,-92.2383,8.44,67,0,6.17,US,1699835731
517,chingirlau,51.095,54.0814,3.0,76,100,5.86,KZ,1699835732
518,dakoro,14.5106,6.765,25.05,13,2,4.96,NE,1699835732
519,kruisfontein,-34.0033,24.7314,11.44,76,20,3.59,ZA,1699835732
520,nageswari,25.9688,89.693,19.58,82,0,3.04,BD,1699835732
521,hanak,41.2336,42.8472,4.51,78,98,0.4,TR,1699835733
522,parkes,-33.1333,148.1833,26.02,18,1,3.82,AU,1699835603
523,loma de cabrera,19.4333,-71.6,24.07,80,3,1.86,DO,1699835733
524,mili,6.0815,171.735,28.49,83,100,8.07,MH,1699835733
525,kirensk,57.7853,108.1119,-10.58,91,100,1.34,RU,1699835604
526,n'dalatando,-9.2978,14.9116,20.31,98,100,0.51,AO,1699835734
527,colonia,50.9333,6.95,7.08,88,0,3.09,DE,1699835734
528,higuera de zaragoza,25.95,-109.2833,26.96,54,0,3.67,MX,1699835734
529,coahuayana de hidalgo,18.7,-103.6583,26.13,87,21,0.63,MX,1699835734
530,midvagur,62.0511,-7.1939,6.46,75,100,7.2,FO,1699835734
531,santa terezinha,-29.9002,-50.0904,20.47,98,100,6.97,BR,1699835735
532,prince edward,44.0001,-77.2495,0.01,86,0,0.45,CA,1699835735
533,ola,59.5833,151.2833,-9.92,63,100,5.51,RU,1699835735
534,santyoku,37.4406,129.1708,5.81,28,0,2.41,KR,1699835735
535,bhamo,24.2667,97.2333,20.23,71,0,0.57,MM,1699835735
536,mormugao,15.4,73.8,24.59,73,20,2.06,IN,1699835736
537,gokwe,-18.2048,28.9349,20.59,27,77,2.85,ZW,1699835736
538,kindu,-2.95,25.95,20.64,99,99,0.57,CD,1699835736
539,uyskoye,54.3775,60.0047,0.73,87,100,2.28,RU,1699835736
540,odense,55.3959,10.3883,6.01,89,11,1.69,DK,1699835737
541,ternate,0.8,127.4,28.83,72,43,1.88,ID,1699835737
542,emsburen,52.4,7.3,5.5,94,39,2.98,DE,1699835737
543,magnitogorsk,53.4186,59.0472,0.46,93,40,5.0,RU,1699835737
544,awjilah,29.1081,21.2869,19.45,42,0,2.06,LY,1699835737
545,portales,34.1862,-103.3344,15.55,53,22,2.82,US,1699835534
546,i-n-salah,27.1935,2.4607,21.31,31,5,5.02,DZ,1699835738
547,novyy urgal,51.0736,132.5642,-12.01,82,80,1.14,RU,1699835738
548,nazarovo,56.0064,90.3914,-6.03,93,100,2.68,RU,1699835604
549,gisborne,-38.6533,178.0042,19.71,56,2,3.27,NZ,1699835513
